{
"type": "FeatureCollection",
"crs": { "type": "name", "properties": { "name": "urn:ogc:def:crs:OGC:1.3:CRS84" } },
"features": [
{ "type": "Feature", "properties": { "place_id": "ChIJPQQC1ZCeP44RkV2H2u513Jg", "name": "Hospital de Kennedy", "address": "Avenida 1 de Mayo #40B-54", "lat": 4.6165239, "lng": -74.1533192 }, "geometry": { "type": "Point", "coordinates": [ -74.1533192, 4.6165239 ] } },
{ "type": "Feature", "properties": { "place_id": "ChIJ03AIw8aYP44R3LhXT3wvzAk", "name": "Fundación Hospital San Carlos", "address": "Carrera 12D # 32 - 44 sur", "lat": 4.5708494, "lng": -74.1072001 }, "geometry": { "type": "Point", "coordinates": [ -74.1072001, 4.5708494 ] } },
{ "type": "Feature", "properties": { "place_id": "ChIJmzAbP2KeP44RnU6SK0ZYY_8", "name": "Clinica Colsubsidio Roma", "address": "Calle 52 Sur #85-71", "lat": 4.6154048, "lng": -74.1729765 }, "geometry": { "type": "Point", "coordinates": [ -74.1729765, 4.6154048 ] } },
{ "type": "Feature", "properties": { "place_id": "ChIJ2TdwZhyZP44RQzZKki2Xomw", "name": "Hospital Anti-Tuberculoso Santa Clara", "address": "Carrera 14b #1-45 sur", "lat": 4.591307, "lng": -74.0920058 }, "geometry": { "type": "Point", "coordinates": [ -74.0920058, 4.591307 ] } },
{ "type": "Feature", "properties": { "place_id": "ChIJ-9tmygKcP44R_TJv7rgzZjI", "name": "Clínica del Occidente", "address": "Avenida de las Américas #71C - 29", "lat": 4.6294743, "lng": -74.135747 }, "geometry": { "type": "Point", "coordinates": [ -74.135747, 4.6294743 ] } },
{ "type": "Feature", "properties": { "place_id": "ChIJk0Eil6KbP44R4y5eooYpRyA", "name": "Compensar Avenida 68", "address": "Avenida 68 # 49A - 47", "lat": 4.6596958, "lng": -74.0988715 }, "geometry": { "type": "Point", "coordinates": [ -74.0988715, 4.6596958 ] } },
{ "type": "Feature", "properties": { "place_id": "ChIJLVESnn6ZP44R5VbNHdlfAIs", "name": "Méderi", "address": "Calle 24 #29-45", "lat": 4.6233209, "lng": -74.0827057 }, "geometry": { "type": "Point", "coordinates": [ -74.0827057, 4.6233209 ] } },
{ "type": "Feature", "properties": { "place_id": "ChIJaSzfI0WfP44RbHxrTY08mmY", "name": "Hospital Meissen", "address": "Calle 60g Sur #Bis Sur", "lat": 4.5595, "lng": -74.1383 }, "geometry": { "type": "Point", "coordinates": [ -74.1383, 4.5595 ] } },
{ "type": "Feature", "properties": { "place_id": "ChIJB_aEePOYP44RWp9m9COWksg", "name": "Hospital San Blas", "address": "Transversal 5 Este #19-50 SUR", "lat": 4.5697384, "lng": -74.0835065 }, "geometry": { "type": "Point", "coordinates": [ -74.0835065, 4.5697384 ] } },
{ "type": "Feature", "properties": { "place_id": "ChIJr6PvsRyZP44RHp1KKMN-OT4", "name": "Federico Lleras Dermatological Center", "address": "Calle 1 #No 13A - 61", "lat": 4.5914512, "lng": -74.0891461 }, "geometry": { "type": "Point", "coordinates": [ -74.0891461, 4.5914512 ] } },
{ "type": "Feature", "properties": { "place_id": "ChIJS-w0QgKZP44RnlG9RZUnQ-Y", "name": "Hospital Materno Infantil", "address": "Avenida Carrera 10 #950", "lat": 4.5882049, "lng": -74.085394 }, "geometry": { "type": "Point", "coordinates": [ -74.085394, 4.5882049 ] } },
{ "type": "Feature", "properties": { "place_id": "ChIJPR-c0LqZP44RKabwg7wPfrI", "name": "Instituto Roosevelt", "address": "Carrera 4 Este #17-50", "lat": 4.5986164, "lng": -74.0642088 }, "geometry": { "type": "Point", "coordinates": [ -74.0642088, 4.5986164 ] } },
{ "type": "Feature", "properties": { "place_id": "ChIJg6R7PoucP44RUXXJ2YvoH7Y", "name": "Hospital Fontibón E.S.E.", "address": "Cra 99 Clle 16 i", "lat": 4.6716675, "lng": -74.1463429 }, "geometry": { "type": "Point", "coordinates": [ -74.1463429, 4.6716675 ] } },
{ "type": "Feature", "properties": { "place_id": "ChIJqape-wmZP44RKOod7urYtyk", "name": "Cafam", "address": "Carrera 8 #15-73", "lat": 4.6027522, "lng": -74.0740496 }, "geometry": { "type": "Point", "coordinates": [ -74.0740496, 4.6027522 ] } },
{ "type": "Feature", "properties": { "place_id": "ChIJV1agngyZP44R130lAuC2_sM", "name": "Clínica Centenario", "address": "Calle 13 #17-21", "lat": 4.6059452, "lng": -74.082898 }, "geometry": { "type": "Point", "coordinates": [ -74.082898, 4.6059452 ] } },
{ "type": "Feature", "properties": { "place_id": "ChIJuc4bO7-bP44Rj7E1l2_Sy4E", "name": "Colombia National University Hospital", "address": "Calle 44 #59-75", "lat": 4.6485378, "lng": -74.0950973 }, "geometry": { "type": "Point", "coordinates": [ -74.0950973, 4.6485378 ] } },
{ "type": "Feature", "properties": { "place_id": "ChIJHSf8h42cP44RUSZ6TQdNe7c", "name": "Hospital Fontibon", "address": "Cra 104 Clle 20C", "lat": 4.6782472, "lng": -74.1438166 }, "geometry": { "type": "Point", "coordinates": [ -74.1438166, 4.6782472 ] } },
{ "type": "Feature", "properties": { "place_id": "ChIJuc21gb-bP44RrXu-j79yass", "name": "Hospital de la Policia Nacional", "address": "Carrera 59 #26-21", "lat": 4.6472533, "lng": -74.0974426 }, "geometry": { "type": "Point", "coordinates": [ -74.0974426, 4.6472533 ] } },
{ "type": "Feature", "properties": { "place_id": "ChIJmZwux16aP44RubqpWlrCJJ4", "name": "Clínica Los Nogales", "address": "Calle 95 #23-61", "lat": 4.6828168, "lng": -74.0571612 }, "geometry": { "type": "Point", "coordinates": [ -74.0571612, 4.6828168 ] } },
{ "type": "Feature", "properties": { "place_id": "ChIJs3s2v0qFP44ReDBETBcmZf8", "name": "Clínica Reina Sofía", "address": "Avenida Calle 127 #20-78", "lat": 4.7068994, "lng": -74.0519893 }, "geometry": { "type": "Point", "coordinates": [ -74.0519893, 4.7068994 ] } },
{ "type": "Feature", "properties": { "place_id": "ChIJcWBArKuEP44RN9q6csl3lKk", "name": "Cami Garces Navas", "address": "Carrera 107 #75b-10", "lat": 4.7104747, "lng": -74.1206662 }, "geometry": { "type": "Point", "coordinates": [ -74.1206662, 4.7104747 ] } },
{ "type": "Feature", "properties": { "place_id": "ChIJvROSmKqbP44Rr2a_bKhIeW8", "name": "UPA Lorencita Villegas", "address": "Carrera 54 #67 Bis 20", "lat": 4.6660731, "lng": -74.0787506 }, "geometry": { "type": "Point", "coordinates": [ -74.0787506, 4.6660731 ] } },
{ "type": "Feature", "properties": { "place_id": "ChIJHS6oYKqZP44RHrYQDw4Zj0o", "name": "Sede Asistencial Lourdes - HOSPITAL CENTRO ORIENTE E.S.E. NIVEL II", "address": "Carrera 2 #3-00", "lat": 4.5896824, "lng": -74.0749335 }, "geometry": { "type": "Point", "coordinates": [ -74.0749335, 4.5896824 ] } },
{ "type": "Feature", "properties": { "place_id": "ChIJK3H27SiaP44RC4qbYGLkiHg", "name": "Compensar Calle 42", "address": "Calle 42 No. 13-19 Torre A Piso 5 y 6, Calle 42 #1319", "lat": 4.6297884, "lng": -74.067229 }, "geometry": { "type": "Point", "coordinates": [ -74.067229, 4.6297884 ] } },
{ "type": "Feature", "properties": { "place_id": "ChIJOTrY2ayZP44RGqC9cPyUruM", "name": "Sede Asistencial Laches - HOSPITAL CENTRO ORIENTE E.S.E. NIVEL II", "address": "Diagonal 4 #6A-11 Este", "lat": 4.5873932, "lng": -74.0684826 }, "geometry": { "type": "Point", "coordinates": [ -74.0684826, 4.5873932 ] } },
{ "type": "Feature", "properties": { "place_id": "ChIJ_W3PucakP44R2wZBmu6HOTo", "name": "Centro de Salud Chipaque", "address": "Carrera 6", "lat": 4.4430825, "lng": -74.0468402 }, "geometry": { "type": "Point", "coordinates": [ -74.0468402, 4.4430825 ] } },
{ "type": "Feature", "properties": { "place_id": "ChIJaWsY0EQKP44RsiYTtXMxHWc", "name": "Centro Femenino Especial José Joaquín Vargas", "address": null, "lat": 4.5011299, "lng": -74.2492985 }, "geometry": { "type": "Point", "coordinates": [ -74.2492985, 4.5011299 ] } },
{ "type": "Feature", "properties": { "place_id": "ChIJdcIEOJeeP44RGNKP0YsKBzc", "name": "Cedit SAS", "address": "Avenida 1 de Mayo", "lat": 4.6178529, "lng": -74.1482788 }, "geometry": { "type": "Point", "coordinates": [ -74.1482788, 4.6178529 ] } },
{ "type": "Feature", "properties": { "place_id": "ChIJ_bN2q9KjP44RxgaZw6HWgtU", "name": "Unidad de Servicios de Salud - Yomasa", "address": "Carrera 1c Este #81a Sur", "lat": 4.5080532, "lng": -74.1124672 }, "geometry": { "type": "Point", "coordinates": [ -74.1124672, 4.5080532 ] } },
{ "type": "Feature", "properties": { "place_id": "ChIJJQOaPi6iP44RD26ACAHMhko", "name": "Cami Santa Librada", "address": "Carrera 1c Este #75 Sur15", "lat": 4.5146649, "lng": -74.1135013 }, "geometry": { "type": "Point", "coordinates": [ -74.11350130000001, 4.5146649 ] } },
{ "type": "Feature", "properties": { "place_id": "ChIJJ1JZPoWmMI4R5fGJokVoyYA", "name": "IPS VIRREY SOLIS UAB SAN FERNANDO Total Health", "address": "Carrera 18 #109-15", "lat": 4.5926448, "lng": -74.090767 }, "geometry": { "type": "Point", "coordinates": [ -74.090767, 4.5926448 ] } },
{ "type": "Feature", "properties": { "place_id": "ChIJZ7UYRyKiP44R5-Kx2XPSMuQ", "name": "Unidad de Servicios de Salud - Santa Marta", "address": "Calle 68b Sur # 9a 29", "lat": 4.5263316, "lng": -74.1165107 }, "geometry": { "type": "Point", "coordinates": [ -74.1165107, 4.5263316 ] } },
{ "type": "Feature", "properties": { "place_id": "ChIJk2a-FPEPP44RHfvmtjrtDuk", "name": "Hospital Ismael Silva", "address": "Calle 9 #92 a 9-88", "lat": 4.4013136, "lng": -74.3896711 }, "geometry": { "type": "Point", "coordinates": [ -74.3896711, 4.4013136 ] } },
{ "type": "Feature", "properties": { "place_id": "ChIJFexdjCyxP44Rt7amN3M1GF4", "name": "Clinic", "address": "Carrera 1", "lat": 4.3395468, "lng": -73.9386468 }, "geometry": { "type": "Point", "coordinates": [ -73.9386468, 4.3395468 ] } },
{ "type": "Feature", "properties": { "place_id": "ChIJ9WyYRD26P44RHYo8g19GV8w", "name": "Hospital de Cáqueza", "address": "Calle 6", "lat": 4.4058626, "lng": -73.9488675 }, "geometry": { "type": "Point", "coordinates": [ -73.9488675, 4.4058626 ] } },
{ "type": "Feature", "properties": { "place_id": "ChIJ37HO4niiP44RssIgVcyc-J8", "name": "Center Altamira Health Care Priority", "address": "Calle 43 Sur #12a Este-2 a 12a Este-32,,", "lat": 4.5450643, "lng": -74.0850511 }, "geometry": { "type": "Point", "coordinates": [ -74.0850511, 4.5450643 ] } },
{ "type": "Feature", "properties": { "place_id": "ChIJNSIhAZyYP44R_z_8ovkT854", "name": "Primary Care Unit Upa La Victoria", "address": "Diagonal 39 Sur #3-20", "lat": 4.5523594, "lng": -74.0943069 }, "geometry": { "type": "Point", "coordinates": [ -74.0943069, 4.5523594 ] } },
{ "type": "Feature", "properties": { "place_id": "ChIJq1YbJEmfP44RlPoPzDiuHyM", "name": "Centro Médico La Facultad", "address": "Carrera 18 #56A", "lat": 4.5641848, "lng": -74.1323348 }, "geometry": { "type": "Point", "coordinates": [ -74.1323348, 4.5641848 ] } },
{ "type": "Feature", "properties": { "place_id": "ChIJxWslO4SYP44R_GOR1hcrILE", "name": "Unidad Primaria de Atención - UPA Los Alpes", "address": "Transversal 12a Este #32g Sur-1 a 32g Sur-47,,", "lat": 4.5538741, "lng": -74.0836658 }, "geometry": { "type": "Point", "coordinates": [ -74.0836658, 4.5538741 ] } },
{ "type": "Feature", "properties": { "place_id": "ChIJKU_TRAyfP44RnDoMJLr_r9M", "name": "Cami Jerusalen", "address": "Calle 72c Sur #46b Sur17", "lat": 4.5721611, "lng": -74.1633583 }, "geometry": { "type": "Point", "coordinates": [ -74.1633583, 4.5721611 ] } },
{ "type": "Feature", "properties": { "place_id": "ChIJu_yRODSfP44RvNgQYSjItNg", "name": "Hospital El Tunal", "address": "35,, Carrera 20 #42 Sur47", "lat": 4.5717058, "lng": -74.128675 }, "geometry": { "type": "Point", "coordinates": [ -74.128675, 4.5717058 ] } },
{ "type": "Feature", "properties": { "place_id": "ChIJB6JkptifP44RNxSPMQy91Z8", "name": "ESE SOACHA", "address": "#- a -43, Calle 12A #11", "lat": 4.5757594, "lng": -74.2175533 }, "geometry": { "type": "Point", "coordinates": [ -74.2175533, 4.5757594 ] } },
{ "type": "Feature", "properties": { "place_id": "ChIJ20YMptifP44RnnvyvCzJ-6s", "name": "San Marcos Health Center", "address": "Carrera 1 #1238", "lat": 4.5759534, "lng": -74.2176457 }, "geometry": { "type": "Point", "coordinates": [ -74.2176457, 4.5759534 ] } },
{ "type": "Feature", "properties": { "place_id": "ChIJ1Scr_8yYP44RBEfdGMhkIpM", "name": "Compensar eps cent medico e.a.a.b", "address": "70 Sur, Caracas #14", "lat": 4.5751838, "lng": -74.1211571 }, "geometry": { "type": "Point", "coordinates": [ -74.1211571, 4.5751838 ] } },
{ "type": "Feature", "properties": { "place_id": "ChIJ_5eNRCWfP44RUXOrkX8pmlY", "name": "Centro Médico Laboratorio Clínico San Camilo", "address": "Calle 52a Sur #32", "lat": 4.5792029, "lng": -74.1366024 }, "geometry": { "type": "Point", "coordinates": [ -74.1366024, 4.5792029 ] } },
{ "type": "Feature", "properties": { "place_id": "ChIJrfTns9qYP44Rhz_NcapfiyQ", "name": "Compensar Calle 31 Sur Av Caracas", "address": "Calle 31 Sur #14 a 99", "lat": 4.5780044, "lng": -74.1111618 }, "geometry": { "type": "Point", "coordinates": [ -74.1111618, 4.5780044 ] } },
{ "type": "Feature", "properties": { "place_id": "ChIJyz-67sKYP44R52lG8Try5GU", "name": "Rafael Uribe Uribe Hospital E.S.E", "address": "Carrera 13 #26A-34Sur", "lat": 4.5759978, "lng": -74.1022049 }, "geometry": { "type": "Point", "coordinates": [ -74.1022049, 4.5759978 ] } },
{ "type": "Feature", "properties": { "place_id": "ChIJwS3y7r-YP44RhKKFoRiisl8", "name": "DENTOLASER SOCIEGO", "address": "Carrera 9 A #20-33 SUR", "lat": 4.5752271, "lng": -74.0943835 }, "geometry": { "type": "Point", "coordinates": [ -74.0943835, 4.5752271 ] } },
{ "type": "Feature", "properties": { "place_id": "ChIJgXgQcNuYP44ROWu0WiUoJcM", "name": "Redimed IPS sede Olaya", "address": "Calle 27 Sur #14-39", "lat": 4.5796011, "lng": -74.1072527 }, "geometry": { "type": "Point", "coordinates": [ -74.1072527, 4.5796011 ] } },
{ "type": "Feature", "properties": { "place_id": "ChIJ5wgMd9uYP44R3Z4Mrb4ZrCY", "name": "John Paul II Medical Center", "address": "Calle 27 Sur #18c-02", "lat": 4.5797954, "lng": -74.1072366 }, "geometry": { "type": "Point", "coordinates": [ -74.1072366, 4.5797954 ] } },
{ "type": "Feature", "properties": { "place_id": "ChIJ_44JdtuYP44RDrb1Cmu2Ba8", "name": "Ips Clinisur Cl27Sur", "address": "Calle 27 Sur #19 - 07", "lat": 4.5801085, "lng": -74.107504 }, "geometry": { "type": "Point", "coordinates": [ -74.107504, 4.5801085 ] } },
{ "type": "Feature", "properties": { "place_id": "ChIJkUX2bt2YP44Rh8hi1QzOfBI", "name": "Rafael Uribe Uribe hospital E.S.E", "address": "11Sur esq. Calle 22S, Carrera 13B #22b", "lat": 4.5791657, "lng": -74.1015966 }, "geometry": { "type": "Point", "coordinates": [ -74.1015966, 4.5791657 ] } },
{ "type": "Feature", "properties": { "place_id": "ChIJP-aB9FCeP44RHkGKUL_D4Xs", "name": "Hospital Pablo VI Bosa I Nivel E.S.E UPA Station", "address": "Calle 60b Sur #7751", "lat": 4.590702, "lng": -74.1808344 }, "geometry": { "type": "Point", "coordinates": [ -74.1808344, 4.590702 ] } },
{ "type": "Feature", "properties": { "place_id": "ChIJV_9YjN-YP44RiL-d5JDijO8", "name": "Hospital Universitario Clinica San Rafael", "address": "Carrera 8 #17 Sur-45", "lat": 4.5767107, "lng": -74.0912065 }, "geometry": { "type": "Point", "coordinates": [ -74.0912065, 4.5767107 ] } },
{ "type": "Feature", "properties": { "place_id": "ChIJn-Ac19uYP44ROL83_JOSb3w", "name": "Salud Total EPS - VS Olaya", "address": "Calle 27 Sur #21A-19", "lat": 4.5824951, "lng": -74.1088493 }, "geometry": { "type": "Point", "coordinates": [ -74.1088493, 4.5824951 ] } },
{ "type": "Feature", "properties": { "place_id": "ChIJfb0K4tuYP44RvQAUC4fhA_k", "name": "Umed Ltda IPS", "address": "Carrera 21 #26-06 sur", "lat": 4.58258, "lng": -74.107402 }, "geometry": { "type": "Point", "coordinates": [ -74.107402, 4.58258 ] } },
{ "type": "Feature", "properties": { "place_id": "ChIJK2yix96YP44Rwniq_79hHCg", "name": "Olaya Polyclinic Center", "address": "Carrera 20 #23 23 SUR", "lat": 4.5836947, "lng": -74.1050608 }, "geometry": { "type": "Point", "coordinates": [ -74.1050608, 4.5836947 ] } },
{ "type": "Feature", "properties": { "place_id": "ChIJR7MGx96YP44R90bRgC98dO4", "name": "Centro de Salud Olaya - SCO", "address": "Carrera 21 #51", "lat": 4.5840885, "lng": -74.1055956 }, "geometry": { "type": "Point", "coordinates": [ -74.1055956, 4.5840885 ] } },
{ "type": "Feature", "properties": { "place_id": "ChIJg_bk1N2YP44Rla-izBd8Uvg", "name": "Sersalud CRC", "address": "Calle 20 Sur # 18 36 Piso 1", "lat": 4.5836906, "lng": -74.1030698 }, "geometry": { "type": "Point", "coordinates": [ -74.1030698, 4.5836906 ] } },
{ "type": "Feature", "properties": { "place_id": "ChIJKatDT1aeP44RRuG0-qGBylk", "name": "Compensar Autopista", "address": "Autopista Sur #73i-45", "lat": 4.5955667, "lng": -74.1731519 }, "geometry": { "type": "Point", "coordinates": [ -74.1731519, 4.5955667 ] } }
]
}
