{
"type": "FeatureCollection",
"crs": { "type": "name", "properties": { "name": "urn:ogc:def:crs:OGC:1.3:CRS84" } },
"features": [
{ "type": "Feature", "properties": { "sample_idx": 0, "sample_lat": 6.2390340641465416, "sample_lng": -75.644716139935767, "place_id": "ChIJuR6Y3popRI4RiDKnVRhOqxM", "hosp_name": 18, "hosp_addr": null, "hosp_lat": 6.2415056, "hosp_lng": -75.6080442, "dist_m": 6080, "dur_s": 1155, "name": "IPS ADVENTIST UNIVERSITY", "address": null, "lat": 6.2415056, "lng": -75.6080442 }, "geometry": { "type": "Point", "coordinates": [ -75.644716139935767, 6.239034064146542 ] } },
{ "type": "Feature", "properties": { "sample_idx": 1, "sample_lat": 6.2513360647306992, "sample_lng": -75.648492147670325, "place_id": "ChIJaZZ-oIApRI4Rf6WSf41UQak", "hosp_name": 5, "hosp_addr": "Carrera 105b #34bb-30", "hosp_lat": 6.245976, "hosp_lng": -75.6197976, "dist_m": 3690, "dur_s": 830, "name": "Health Center Villa Laura", "address": "Carrera 105b #34bb-30", "lat": 6.245976, "lng": -75.6197976 }, "geometry": { "type": "Point", "coordinates": [ -75.648492147670325, 6.251336064730699 ] } },
{ "type": "Feature", "properties": { "sample_idx": 2, "sample_lat": 6.2013691011816707, "sample_lng": -75.676447913967337, "place_id": "ChIJUUF_piyCRo4R8M4m8pHdwtE", "hosp_name": 12, "hosp_addr": "Calle 39 #49-37", "hosp_lat": 6.168067, "hosp_lng": -75.6157719, "dist_m": 9961, "dur_s": 1698, "name": "Humanitas Eps", "address": "Calle 39 #49-37", "lat": 6.168067, "lng": -75.6157719 }, "geometry": { "type": "Point", "coordinates": [ -75.676447913967337, 6.201369101181671 ] } },
{ "type": "Feature", "properties": { "sample_idx": 3, "sample_lat": 6.1684634135223018, "sample_lng": -75.661774922286384, "place_id": "ChIJUUF_piyCRo4R8M4m8pHdwtE", "hosp_name": 12, "hosp_addr": "Calle 39 #49-37", "hosp_lat": 6.168067, "hosp_lng": -75.6157719, "dist_m": 5949, "dur_s": 983, "name": "Humanitas Eps", "address": "Calle 39 #49-37", "lat": 6.168067, "lng": -75.6157719 }, "geometry": { "type": "Point", "coordinates": [ -75.661774922286384, 6.168463413522302 ] } },
{ "type": "Feature", "properties": { "sample_idx": 4, "sample_lat": 6.3187233382911003, "sample_lng": -75.69504532765589, "place_id": "ChIJ-7OH4OcrRI4R6hg1C5CDY_0", "hosp_name": 8, "hosp_addr": "Calle 55a #125a-5", "hosp_lat": 6.2721351, "hosp_lng": -75.6322563, "dist_m": 14787, "dur_s": 1516, "name": "Centro de Salud La Loma", "address": "Calle 55a #125a-5", "lat": 6.2721351, "lng": -75.6322563 }, "geometry": { "type": "Point", "coordinates": [ -75.69504532765589, 6.3187233382911 ] } },
{ "type": "Feature", "properties": { "sample_idx": 5, "sample_lat": 6.2362409277896083, "sample_lng": -75.607239122454487, "place_id": "ChIJuR6Y3popRI4RiDKnVRhOqxM", "hosp_name": 18, "hosp_addr": null, "hosp_lat": 6.2415056, "hosp_lng": -75.6080442, "dist_m": 701, "dur_s": 118, "name": "IPS ADVENTIST UNIVERSITY", "address": null, "lat": 6.2415056, "lng": -75.6080442 }, "geometry": { "type": "Point", "coordinates": [ -75.607239122454487, 6.236240927789608 ] } },
{ "type": "Feature", "properties": { "sample_idx": 6, "sample_lat": 6.184131545938949, "sample_lng": -75.56021441675162, "place_id": "ChIJPebK1vMoRI4R-mn4AoDQ4PM", "hosp_name": 0, "hosp_addr": "Carrera 20 #2 Sur 185", "hosp_lat": 6.1939507, "hosp_lng": -75.5574488, "dist_m": 2798, "dur_s": 433, "name": "Clínica El Rosario", "address": "Carrera 20 #2 Sur 185", "lat": 6.1939507, "lng": -75.5574488 }, "geometry": { "type": "Point", "coordinates": [ -75.56021441675162, 6.184131545938949 ] } },
{ "type": "Feature", "properties": { "sample_idx": 7, "sample_lat": 6.2793418363071254, "sample_lng": -75.530425285472916, "place_id": "ChIJae5hlE4vRI4RSlZ3bpbA60o", "hosp_name": 2, "hosp_addr": "Carrera 33 #107B-15", "hosp_lat": 6.2953705, "hosp_lng": -75.5433534, "dist_m": 19522, "dur_s": 3784, "name": "Health Center Santo Domingo Savio", "address": "Carrera 33 #107B-15", "lat": 6.2953705, "lng": -75.5433534 }, "geometry": { "type": "Point", "coordinates": [ -75.530425285472916, 6.279341836307125 ] } },
{ "type": "Feature", "properties": { "sample_idx": 8, "sample_lat": 6.2380179797080597, "sample_lng": -75.596927011389454, "place_id": "ChIJ5Swtq6IpRI4Ru477HoyFvpI", "hosp_name": 23, "hosp_addr": "Avenida 33 #76-72", "hosp_lat": 6.2391141, "hosp_lng": -75.5973176, "dist_m": 232, "dur_s": 70, "name": "Tejido Humano", "address": "Avenida 33 #76-72", "lat": 6.2391141, "lng": -75.5973176 }, "geometry": { "type": "Point", "coordinates": [ -75.596927011389454, 6.23801797970806 ] } },
{ "type": "Feature", "properties": { "sample_idx": 9, "sample_lat": 6.1751539118286409, "sample_lng": -75.678121652219744, "place_id": "ChIJUUF_piyCRo4R8M4m8pHdwtE", "hosp_name": 12, "hosp_addr": "Calle 39 #49-37", "hosp_lat": 6.168067, "hosp_lng": -75.6157719, "dist_m": 8611, "dur_s": 1639, "name": "Humanitas Eps", "address": "Calle 39 #49-37", "lat": 6.168067, "lng": -75.6157719 }, "geometry": { "type": "Point", "coordinates": [ -75.678121652219744, 6.175153911828641 ] } },
{ "type": "Feature", "properties": { "sample_idx": 10, "sample_lat": 6.3352200272930794, "sample_lng": -75.701199816725676, "place_id": "ChIJ-7OH4OcrRI4R6hg1C5CDY_0", "hosp_name": 8, "hosp_addr": "Calle 55a #125a-5", "hosp_lat": 6.2721351, "hosp_lng": -75.6322563, "dist_m": 12948, "dur_s": 1301, "name": "Centro de Salud La Loma", "address": "Calle 55a #125a-5", "lat": 6.2721351, "lng": -75.6322563 }, "geometry": { "type": "Point", "coordinates": [ -75.701199816725676, 6.335220027293079 ] } },
{ "type": "Feature", "properties": { "sample_idx": 11, "sample_lat": 6.2554873662503763, "sample_lng": -75.486111898737704, "place_id": "ChIJae5hlE4vRI4RSlZ3bpbA60o", "hosp_name": 2, "hosp_addr": "Carrera 33 #107B-15", "hosp_lat": 6.2953705, "hosp_lng": -75.5433534, "dist_m": 18205, "dur_s": 3241, "name": "Health Center Santo Domingo Savio", "address": "Carrera 33 #107B-15", "lat": 6.2953705, "lng": -75.5433534 }, "geometry": { "type": "Point", "coordinates": [ -75.486111898737704, 6.255487366250376 ] } },
{ "type": "Feature", "properties": { "sample_idx": 12, "sample_lat": 6.2641495880885936, "sample_lng": -75.519196467551637, "place_id": "ChIJ99a72fooRI4Rp_xBuPado7I", "hosp_name": 52, "hosp_addr": "Calle 59 #50C-15", "hosp_lat": 6.2579004, "hosp_lng": -75.5653419, "dist_m": 17280, "dur_s": 2633, "name": "Urgencias Clínica CES", "address": "Calle 59 #50C-15", "lat": 6.2579004, "lng": -75.5653419 }, "geometry": { "type": "Point", "coordinates": [ -75.519196467551637, 6.264149588088594 ] } },
{ "type": "Feature", "properties": { "sample_idx": 13, "sample_lat": 6.2797198422039946, "sample_lng": -75.577384571377934, "place_id": "ChIJjxxoTiQpRI4RxOsLkaA6wDY", "hosp_name": 37, "hosp_addr": "Carrera 72A #78b -50", "hosp_lat": 6.27682, "hosp_lng": -75.5819719, "dist_m": 779, "dur_s": 219, "name": "Universidad Pontificia Bolivariana University Clinic", "address": "Carrera 72A #78b -50", "lat": 6.27682, "lng": -75.5819719 }, "geometry": { "type": "Point", "coordinates": [ -75.577384571377934, 6.279719842203995 ] } },
{ "type": "Feature", "properties": { "sample_idx": 14, "sample_lat": 6.2827098328269981, "sample_lng": -75.665382452934068, "place_id": "ChIJ-7OH4OcrRI4R6hg1C5CDY_0", "hosp_name": 8, "hosp_addr": "Calle 55a #125a-5", "hosp_lat": 6.2721351, "hosp_lng": -75.6322563, "dist_m": 5450, "dur_s": 949, "name": "Centro de Salud La Loma", "address": "Calle 55a #125a-5", "lat": 6.2721351, "lng": -75.6322563 }, "geometry": { "type": "Point", "coordinates": [ -75.665382452934068, 6.282709832826998 ] } },
{ "type": "Feature", "properties": { "sample_idx": 15, "sample_lat": 6.2277004792381678, "sample_lng": -75.653068542159204, "place_id": "ChIJuR6Y3popRI4RiDKnVRhOqxM", "hosp_name": 18, "hosp_addr": null, "hosp_lat": 6.2415056, "hosp_lng": -75.6080442, "dist_m": 7096, "dur_s": 1292, "name": "IPS ADVENTIST UNIVERSITY", "address": null, "lat": 6.2415056, "lng": -75.6080442 }, "geometry": { "type": "Point", "coordinates": [ -75.653068542159204, 6.227700479238168 ] } },
{ "type": "Feature", "properties": { "sample_idx": 16, "sample_lat": 6.2627692185380779, "sample_lng": -75.678970992708869, "place_id": "ChIJ-7OH4OcrRI4R6hg1C5CDY_0", "hosp_name": 8, "hosp_addr": "Calle 55a #125a-5", "hosp_lat": 6.2721351, "hosp_lng": -75.6322563, "dist_m": 21769, "dur_s": 3782, "name": "Centro de Salud La Loma", "address": "Calle 55a #125a-5", "lat": 6.2721351, "lng": -75.6322563 }, "geometry": { "type": "Point", "coordinates": [ -75.678970992708869, 6.262769218538078 ] } },
{ "type": "Feature", "properties": { "sample_idx": 17, "sample_lat": 6.1995905517204504, "sample_lng": -75.635794720236959, "place_id": "ChIJr12B4eMpRI4RO3OiLfffJus", "hosp_name": 53, "hosp_addr": "Calle 2b #100", "hosp_lat": 6.2122757, "hosp_lng": -75.6035406, "dist_m": 5422, "dur_s": 1272, "name": "Centro de Salud Belén Rincón", "address": "Calle 2b #100", "lat": 6.2122757, "lng": -75.6035406 }, "geometry": { "type": "Point", "coordinates": [ -75.635794720236959, 6.19959055172045 ] } },
{ "type": "Feature", "properties": { "sample_idx": 18, "sample_lat": 6.2999231332059704, "sample_lng": -75.601739339523377, "place_id": "ChIJE9rpm1ApRI4R21vmmETfKEQ", "hosp_name": 24, "hosp_addr": "Robledo la Aurora, Carrera 102c #63 B 65", "hosp_lat": 6.2811828, "hosp_lng": -75.6128002, "dist_m": 5041, "dur_s": 783, "name": "Unidad Hospitalaria Nuevo Occidente", "address": "Robledo la Aurora, Carrera 102c #63 B 65", "lat": 6.2811828, "lng": -75.6128002 }, "geometry": { "type": "Point", "coordinates": [ -75.601739339523377, 6.29992313320597 ] } },
{ "type": "Feature", "properties": { "sample_idx": 19, "sample_lat": 6.2651172681955032, "sample_lng": -75.692741968419625, "place_id": "ChIJ-7OH4OcrRI4R6hg1C5CDY_0", "hosp_name": 8, "hosp_addr": "Calle 55a #125a-5", "hosp_lat": 6.2721351, "hosp_lng": -75.6322563, "dist_m": 23933, "dur_s": 4148, "name": "Centro de Salud La Loma", "address": "Calle 55a #125a-5", "lat": 6.2721351, "lng": -75.6322563 }, "geometry": { "type": "Point", "coordinates": [ -75.692741968419625, 6.265117268195503 ] } },
{ "type": "Feature", "properties": { "sample_idx": 20, "sample_lat": 6.2938867573412622, "sample_lng": -75.581178390803288, "place_id": "ChIJO0hBCNEuRI4R9zic1a3FSpc", "hosp_name": 9, "hosp_addr": "Carrera 83b #97AA - 82", "hosp_lat": 6.2971808, "hosp_lng": -75.5828885, "dist_m": 769, "dur_s": 171, "name": "Picachito Health Center", "address": "Carrera 83b #97AA - 82", "lat": 6.2971808, "lng": -75.5828885 }, "geometry": { "type": "Point", "coordinates": [ -75.581178390803288, 6.293886757341262 ] } },
{ "type": "Feature", "properties": { "sample_idx": 21, "sample_lat": 6.2517962995326606, "sample_lng": -75.701249668391284, "place_id": "ChIJ-7OH4OcrRI4R6hg1C5CDY_0", "hosp_name": 8, "hosp_addr": "Calle 55a #125a-5", "hosp_lat": 6.2721351, "hosp_lng": -75.6322563, "dist_m": 26792, "dur_s": 4589, "name": "Centro de Salud La Loma", "address": "Calle 55a #125a-5", "lat": 6.2721351, "lng": -75.6322563 }, "geometry": { "type": "Point", "coordinates": [ -75.701249668391284, 6.251796299532661 ] } },
{ "type": "Feature", "properties": { "sample_idx": 22, "sample_lat": 6.2942147240705184, "sample_lng": -75.694224685659862, "place_id": "ChIJ-7OH4OcrRI4R6hg1C5CDY_0", "hosp_name": 8, "hosp_addr": "Calle 55a #125a-5", "hosp_lat": 6.2721351, "hosp_lng": -75.6322563, "dist_m": 15757, "dur_s": 1668, "name": "Centro de Salud La Loma", "address": "Calle 55a #125a-5", "lat": 6.2721351, "lng": -75.6322563 }, "geometry": { "type": "Point", "coordinates": [ -75.694224685659862, 6.294214724070518 ] } },
{ "type": "Feature", "properties": { "sample_idx": 23, "sample_lat": 6.2160555506073409, "sample_lng": -75.60809769170973, "place_id": "ChIJr12B4eMpRI4RO3OiLfffJus", "hosp_name": 53, "hosp_addr": "Calle 2b #100", "hosp_lat": 6.2122757, "hosp_lng": -75.6035406, "dist_m": 1217, "dur_s": 268, "name": "Centro de Salud Belén Rincón", "address": "Calle 2b #100", "lat": 6.2122757, "lng": -75.6035406 }, "geometry": { "type": "Point", "coordinates": [ -75.60809769170973, 6.216055550607341 ] } },
{ "type": "Feature", "properties": { "sample_idx": 24, "sample_lat": 6.2117145235099871, "sample_lng": -75.487486526506984, "place_id": "ChIJCZAfgfcoRI4RPrb1N9oAU-0", "hosp_name": 47, "hosp_addr": "Carrera 45 #45-06", "hosp_lat": 6.2409287, "hosp_lng": -75.5699405, "dist_m": 29472, "dur_s": 2765, "name": "Edesa Centro de Atención en Salud", "address": "Carrera 45 #45-06", "lat": 6.2409287, "lng": -75.5699405 }, "geometry": { "type": "Point", "coordinates": [ -75.487486526506984, 6.211714523509987 ] } },
{ "type": "Feature", "properties": { "sample_idx": 25, "sample_lat": 6.357298365633933, "sample_lng": -75.678531597651912, "place_id": "ChIJ-7OH4OcrRI4R6hg1C5CDY_0", "hosp_name": 8, "hosp_addr": "Calle 55a #125a-5", "hosp_lat": 6.2721351, "hosp_lng": -75.6322563, "dist_m": 24328, "dur_s": 1916, "name": "Centro de Salud La Loma", "address": "Calle 55a #125a-5", "lat": 6.2721351, "lng": -75.6322563 }, "geometry": { "type": "Point", "coordinates": [ -75.678531597651912, 6.357298365633933 ] } },
{ "type": "Feature", "properties": { "sample_idx": 26, "sample_lat": 6.2224238061081154, "sample_lng": -75.576648787148486, "place_id": "ChIJi8DB2q0pRI4RjF4pLKz8X1I", "hosp_name": 39, "hosp_addr": "Calle 34 #63A - 30", "hosp_lat": 6.2403564, "hosp_lng": -75.5794024, "dist_m": 2651, "dur_s": 237, "name": "Clínica Orlant - Sede Principal (Clínica de Otorrinolaringología de Antioquia)", "address": "Calle 34 #63A - 30", "lat": 6.2403564, "lng": -75.5794024 }, "geometry": { "type": "Point", "coordinates": [ -75.576648787148486, 6.222423806108115 ] } },
{ "type": "Feature", "properties": { "sample_idx": 27, "sample_lat": 6.2518180826770617, "sample_lng": -75.682011858737667, "place_id": "ChIJuR6Y3popRI4RiDKnVRhOqxM", "hosp_name": 18, "hosp_addr": null, "hosp_lat": 6.2415056, "hosp_lng": -75.6080442, "dist_m": 13068, "dur_s": 2385, "name": "IPS ADVENTIST UNIVERSITY", "address": null, "lat": 6.2415056, "lng": -75.6080442 }, "geometry": { "type": "Point", "coordinates": [ -75.682011858737667, 6.251818082677062 ] } },
{ "type": "Feature", "properties": { "sample_idx": 28, "sample_lat": 6.2298261693458343, "sample_lng": -75.688450638653663, "place_id": "ChIJr12B4eMpRI4RO3OiLfffJus", "hosp_name": 53, "hosp_addr": "Calle 2b #100", "hosp_lat": 6.2122757, "hosp_lng": -75.6035406, "dist_m": 35083, "dur_s": 5578, "name": "Centro de Salud Belén Rincón", "address": "Calle 2b #100", "lat": 6.2122757, "lng": -75.6035406 }, "geometry": { "type": "Point", "coordinates": [ -75.688450638653663, 6.229826169345834 ] } },
{ "type": "Feature", "properties": { "sample_idx": 29, "sample_lat": 6.3012812878128148, "sample_lng": -75.629115269729851, "place_id": "ChIJE9rpm1ApRI4R21vmmETfKEQ", "hosp_name": 24, "hosp_addr": "Robledo la Aurora, Carrera 102c #63 B 65", "hosp_lat": 6.2811828, "hosp_lng": -75.6128002, "dist_m": 8283, "dur_s": 1175, "name": "Unidad Hospitalaria Nuevo Occidente", "address": "Robledo la Aurora, Carrera 102c #63 B 65", "lat": 6.2811828, "lng": -75.6128002 }, "geometry": { "type": "Point", "coordinates": [ -75.629115269729851, 6.301281287812815 ] } },
{ "type": "Feature", "properties": { "sample_idx": 30, "sample_lat": 6.2386103644195359, "sample_lng": -75.698676672424725, "place_id": "ChIJP_nSYp4pRI4RumyOTv74yRI", "hosp_name": 14, "hosp_addr": "Carrera 83 #37d-59", "hosp_lat": 6.2471564, "hosp_lng": -75.6026789, "dist_m": 41400, "dur_s": 5498, "name": "Cruz Blanca Eps", "address": "Carrera 83 #37d-59", "lat": 6.2471564, "lng": -75.6026789 }, "geometry": { "type": "Point", "coordinates": [ -75.698676672424725, 6.238610364419536 ] } },
{ "type": "Feature", "properties": { "sample_idx": 31, "sample_lat": 6.3052116830711658, "sample_lng": -75.61679439423699, "place_id": "ChIJE9rpm1ApRI4R21vmmETfKEQ", "hosp_name": 24, "hosp_addr": "Robledo la Aurora, Carrera 102c #63 B 65", "hosp_lat": 6.2811828, "hosp_lng": -75.6128002, "dist_m": 7519, "dur_s": 1125, "name": "Unidad Hospitalaria Nuevo Occidente", "address": "Robledo la Aurora, Carrera 102c #63 B 65", "lat": 6.2811828, "lng": -75.6128002 }, "geometry": { "type": "Point", "coordinates": [ -75.61679439423699, 6.305211683071166 ] } },
{ "type": "Feature", "properties": { "sample_idx": 32, "sample_lat": 6.2487547156406853, "sample_lng": -75.680796102587095, "place_id": "ChIJuR6Y3popRI4RiDKnVRhOqxM", "hosp_name": 18, "hosp_addr": null, "hosp_lat": 6.2415056, "hosp_lng": -75.6080442, "dist_m": 13293, "dur_s": 2427, "name": "IPS ADVENTIST UNIVERSITY", "address": null, "lat": 6.2415056, "lng": -75.6080442 }, "geometry": { "type": "Point", "coordinates": [ -75.680796102587095, 6.248754715640685 ] } },
{ "type": "Feature", "properties": { "sample_idx": 33, "sample_lat": 6.2415718238430209, "sample_lng": -75.48845320739386, "place_id": "ChIJY6NkV_goRI4RMlPFw9ilsNg", "hosp_name": 55, "hosp_addr": "Edifico Puerta Santa María, Carrera 47 #52-83 Interior 401", "hosp_lat": 6.2503231, "hosp_lng": -75.5653346, "dist_m": 22402, "dur_s": 3000, "name": "IPS Casa Plankton", "address": "Edifico Puerta Santa María, Carrera 47 #52-83 Interior 401", "lat": 6.2503231, "lng": -75.5653346 }, "geometry": { "type": "Point", "coordinates": [ -75.48845320739386, 6.241571823843021 ] } },
{ "type": "Feature", "properties": { "sample_idx": 34, "sample_lat": 6.2214804228933538, "sample_lng": -75.55722328234009, "place_id": "ChIJCZAfgfcoRI4RPrb1N9oAU-0", "hosp_name": 47, "hosp_addr": "Carrera 45 #45-06", "hosp_lat": 6.2409287, "hosp_lng": -75.5699405, "dist_m": 6792, "dur_s": 818, "name": "Edesa Centro de Atención en Salud", "address": "Carrera 45 #45-06", "lat": 6.2409287, "lng": -75.5699405 }, "geometry": { "type": "Point", "coordinates": [ -75.55722328234009, 6.221480422893354 ] } },
{ "type": "Feature", "properties": { "sample_idx": 35, "sample_lat": 6.2161864521571859, "sample_lng": -75.632553912954975, "place_id": "ChIJtSQh7ecpRI4R6R__yB9SNKI", "hosp_name": 45, "hosp_addr": "Diagonal 75B #5-106", "hosp_lat": 6.2171486, "hosp_lng": -75.5984526, "dist_m": 6366, "dur_s": 1144, "name": "Coomeva EPS", "address": "Diagonal 75B #5-106", "lat": 6.2171486, "lng": -75.5984526 }, "geometry": { "type": "Point", "coordinates": [ -75.632553912954975, 6.216186452157186 ] } },
{ "type": "Feature", "properties": { "sample_idx": 36, "sample_lat": 6.2207388100890242, "sample_lng": -75.658304059580004, "place_id": "ChIJtSQh7ecpRI4R6R__yB9SNKI", "hosp_name": 45, "hosp_addr": "Diagonal 75B #5-106", "hosp_lat": 6.2171486, "hosp_lng": -75.5984526, "dist_m": 9616, "dur_s": 1719, "name": "Coomeva EPS", "address": "Diagonal 75B #5-106", "lat": 6.2171486, "lng": -75.5984526 }, "geometry": { "type": "Point", "coordinates": [ -75.658304059580004, 6.220738810089024 ] } },
{ "type": "Feature", "properties": { "sample_idx": 37, "sample_lat": 6.283767400506763, "sample_lng": -75.519591067551175, "place_id": "ChIJae5hlE4vRI4RSlZ3bpbA60o", "hosp_name": 2, "hosp_addr": "Carrera 33 #107B-15", "hosp_lat": 6.2953705, "hosp_lng": -75.5433534, "dist_m": 17311, "dur_s": 3213, "name": "Health Center Santo Domingo Savio", "address": "Carrera 33 #107B-15", "lat": 6.2953705, "lng": -75.5433534 }, "geometry": { "type": "Point", "coordinates": [ -75.519591067551175, 6.283767400506763 ] } },
{ "type": "Feature", "properties": { "sample_idx": 38, "sample_lat": 6.2173058946803907, "sample_lng": -75.634715125108471, "place_id": "ChIJtSQh7ecpRI4R6R__yB9SNKI", "hosp_name": 45, "hosp_addr": "Diagonal 75B #5-106", "hosp_lat": 6.2171486, "hosp_lng": -75.5984526, "dist_m": 6220, "dur_s": 1113, "name": "Coomeva EPS", "address": "Diagonal 75B #5-106", "lat": 6.2171486, "lng": -75.5984526 }, "geometry": { "type": "Point", "coordinates": [ -75.634715125108471, 6.217305894680391 ] } },
{ "type": "Feature", "properties": { "sample_idx": 39, "sample_lat": 6.1959031211380609, "sample_lng": -75.50639536261734, "place_id": "ChIJPebK1vMoRI4R-mn4AoDQ4PM", "hosp_name": 0, "hosp_addr": "Carrera 20 #2 Sur 185", "hosp_lat": 6.1939507, "hosp_lng": -75.5574488, "dist_m": 24213, "dur_s": 2484, "name": "Clínica El Rosario", "address": "Carrera 20 #2 Sur 185", "lat": 6.1939507, "lng": -75.5574488 }, "geometry": { "type": "Point", "coordinates": [ -75.50639536261734, 6.195903121138061 ] } },
{ "type": "Feature", "properties": { "sample_idx": 40, "sample_lat": 6.2954390058083449, "sample_lng": -75.591502075148881, "place_id": "ChIJO0hBCNEuRI4R9zic1a3FSpc", "hosp_name": 9, "hosp_addr": "Carrera 83b #97AA - 82", "hosp_lat": 6.2971808, "hosp_lng": -75.5828885, "dist_m": 2718, "dur_s": 604, "name": "Picachito Health Center", "address": "Carrera 83b #97AA - 82", "lat": 6.2971808, "lng": -75.5828885 }, "geometry": { "type": "Point", "coordinates": [ -75.591502075148881, 6.295439005808345 ] } },
{ "type": "Feature", "properties": { "sample_idx": 41, "sample_lat": 6.2649298011072228, "sample_lng": -75.586488598057002, "place_id": "ChIJCWJxCzspRI4R1n6t4qvLYYU", "hosp_name": 34, "hosp_addr": "Calle 75 #75-29", "hosp_lat": 6.2760841, "hosp_lng": -75.5880328, "dist_m": 2157, "dur_s": 325, "name": "Robledo Metrosalud Health Center", "address": "Calle 75 #75-29", "lat": 6.2760841, "lng": -75.5880328 }, "geometry": { "type": "Point", "coordinates": [ -75.586488598057002, 6.264929801107223 ] } },
{ "type": "Feature", "properties": { "sample_idx": 42, "sample_lat": 6.2248016104341346, "sample_lng": -75.644640118547841, "place_id": "ChIJtSQh7ecpRI4R6R__yB9SNKI", "hosp_name": 45, "hosp_addr": "Diagonal 75B #5-106", "hosp_lat": 6.2171486, "hosp_lng": -75.5984526, "dist_m": 6818, "dur_s": 1207, "name": "Coomeva EPS", "address": "Diagonal 75B #5-106", "lat": 6.2171486, "lng": -75.5984526 }, "geometry": { "type": "Point", "coordinates": [ -75.644640118547841, 6.224801610434135 ] } },
{ "type": "Feature", "properties": { "sample_idx": 43, "sample_lat": 6.286830987978127, "sample_lng": -75.557358795597082, "place_id": "ChIJjVFBRywvRI4RmhcXMagD7YI", "hosp_name": 44, "hosp_addr": "Carrera 64 #68-75", "hosp_lat": 6.268183, "hosp_lng": -75.5722321, "dist_m": 3584, "dur_s": 368, "name": "IPS Sura", "address": "Carrera 64 #68-75", "lat": 6.268183, "lng": -75.5722321 }, "geometry": { "type": "Point", "coordinates": [ -75.557358795597082, 6.286830987978127 ] } },
{ "type": "Feature", "properties": { "sample_idx": 44, "sample_lat": 6.2137023521571288, "sample_lng": -75.626217700285096, "place_id": "ChIJr12B4eMpRI4RO3OiLfffJus", "hosp_name": 53, "hosp_addr": "Calle 2b #100", "hosp_lat": 6.2122757, "hosp_lng": -75.6035406, "dist_m": 4685, "dur_s": 1011, "name": "Centro de Salud Belén Rincón", "address": "Calle 2b #100", "lat": 6.2122757, "lng": -75.6035406 }, "geometry": { "type": "Point", "coordinates": [ -75.626217700285096, 6.213702352157129 ] } },
{ "type": "Feature", "properties": { "sample_idx": 45, "sample_lat": 6.2051695743611708, "sample_lng": -75.612042871427235, "place_id": "ChIJr12B4eMpRI4RO3OiLfffJus", "hosp_name": 53, "hosp_addr": "Calle 2b #100", "hosp_lat": 6.2122757, "hosp_lng": -75.6035406, "dist_m": 1993, "dur_s": 541, "name": "Centro de Salud Belén Rincón", "address": "Calle 2b #100", "lat": 6.2122757, "lng": -75.6035406 }, "geometry": { "type": "Point", "coordinates": [ -75.612042871427235, 6.205169574361171 ] } },
{ "type": "Feature", "properties": { "sample_idx": 46, "sample_lat": 6.2172166127644362, "sample_lng": -75.675244502565761, "place_id": "ChIJUUF_piyCRo4R8M4m8pHdwtE", "hosp_name": 12, "hosp_addr": "Calle 39 #49-37", "hosp_lat": 6.168067, "hosp_lng": -75.6157719, "dist_m": 10938, "dur_s": 1712, "name": "Humanitas Eps", "address": "Calle 39 #49-37", "lat": 6.168067, "lng": -75.6157719 }, "geometry": { "type": "Point", "coordinates": [ -75.675244502565761, 6.217216612764436 ] } },
{ "type": "Feature", "properties": { "sample_idx": 47, "sample_lat": 6.2580083109173481, "sample_lng": -75.704530179794759, "place_id": "ChIJ-7OH4OcrRI4R6hg1C5CDY_0", "hosp_name": 8, "hosp_addr": "Calle 55a #125a-5", "hosp_lat": 6.2721351, "hosp_lng": -75.6322563, "dist_m": 26695, "dur_s": 4631, "name": "Centro de Salud La Loma", "address": "Calle 55a #125a-5", "lat": 6.2721351, "lng": -75.6322563 }, "geometry": { "type": "Point", "coordinates": [ -75.704530179794759, 6.258008310917348 ] } },
{ "type": "Feature", "properties": { "sample_idx": 48, "sample_lat": 6.2019350416481327, "sample_lng": -75.550644840919247, "place_id": "ChIJPebK1vMoRI4R-mn4AoDQ4PM", "hosp_name": 0, "hosp_addr": "Carrera 20 #2 Sur 185", "hosp_lat": 6.1939507, "hosp_lng": -75.5574488, "dist_m": 2614, "dur_s": 515, "name": "Clínica El Rosario", "address": "Carrera 20 #2 Sur 185", "lat": 6.1939507, "lng": -75.5574488 }, "geometry": { "type": "Point", "coordinates": [ -75.550644840919247, 6.201935041648133 ] } },
{ "type": "Feature", "properties": { "sample_idx": 49, "sample_lat": 6.2099056178954788, "sample_lng": -75.543564539237551, "place_id": "ChIJPebK1vMoRI4R-mn4AoDQ4PM", "hosp_name": 0, "hosp_addr": "Carrera 20 #2 Sur 185", "hosp_lat": 6.1939507, "hosp_lng": -75.5574488, "dist_m": 5799, "dur_s": 859, "name": "Clínica El Rosario", "address": "Carrera 20 #2 Sur 185", "lat": 6.1939507, "lng": -75.5574488 }, "geometry": { "type": "Point", "coordinates": [ -75.543564539237551, 6.209905617895479 ] } },
{ "type": "Feature", "properties": { "sample_idx": 50, "sample_lat": 6.2140562533266834, "sample_lng": -75.585702791728465, "place_id": "ChIJ8_JNCc8pRI4RQaIkgpb5wjc", "hosp_name": 50, "hosp_addr": "Calle 17 #60", "hosp_lat": 6.2207482, "hosp_lng": -75.5840562, "dist_m": 920, "dur_s": 149, "name": "Dispositivos FLEX", "address": "Calle 17 #60", "lat": 6.2207482, "lng": -75.5840562 }, "geometry": { "type": "Point", "coordinates": [ -75.585702791728465, 6.214056253326683 ] } },
{ "type": "Feature", "properties": { "sample_idx": 51, "sample_lat": 6.2430813311940492, "sample_lng": -75.569240440551553, "place_id": "ChIJCZAfgfcoRI4RPrb1N9oAU-0", "hosp_name": 47, "hosp_addr": "Carrera 45 #45-06", "hosp_lat": 6.2409287, "hosp_lng": -75.5699405, "dist_m": 832, "dur_s": 287, "name": "Edesa Centro de Atención en Salud", "address": "Carrera 45 #45-06", "lat": 6.2409287, "lng": -75.5699405 }, "geometry": { "type": "Point", "coordinates": [ -75.569240440551553, 6.243081331194049 ] } },
{ "type": "Feature", "properties": { "sample_idx": 52, "sample_lat": 6.2655679732968457, "sample_lng": -75.680393716382696, "place_id": "ChIJ-7OH4OcrRI4R6hg1C5CDY_0", "hosp_name": 8, "hosp_addr": "Calle 55a #125a-5", "hosp_lat": 6.2721351, "hosp_lng": -75.6322563, "dist_m": 21382, "dur_s": 3715, "name": "Centro de Salud La Loma", "address": "Calle 55a #125a-5", "lat": 6.2721351, "lng": -75.6322563 }, "geometry": { "type": "Point", "coordinates": [ -75.680393716382696, 6.265567973296846 ] } },
{ "type": "Feature", "properties": { "sample_idx": 53, "sample_lat": 6.1995272461748661, "sample_lng": -75.528943407280849, "place_id": "ChIJY6NkV_goRI4RMlPFw9ilsNg", "hosp_name": 55, "hosp_addr": "Edifico Puerta Santa María, Carrera 47 #52-83 Interior 401", "hosp_lat": 6.2503231, "hosp_lng": -75.5653346, "dist_m": 23371, "dur_s": 3257, "name": "IPS Casa Plankton", "address": "Edifico Puerta Santa María, Carrera 47 #52-83 Interior 401", "lat": 6.2503231, "lng": -75.5653346 }, "geometry": { "type": "Point", "coordinates": [ -75.528943407280849, 6.199527246174866 ] } },
{ "type": "Feature", "properties": { "sample_idx": 54, "sample_lat": 6.229120842229646, "sample_lng": -75.664189702050621, "place_id": "ChIJuR6Y3popRI4RiDKnVRhOqxM", "hosp_name": 18, "hosp_addr": null, "hosp_lat": 6.2415056, "hosp_lng": -75.6080442, "dist_m": 10029, "dur_s": 1886, "name": "IPS ADVENTIST UNIVERSITY", "address": null, "lat": 6.2415056, "lng": -75.6080442 }, "geometry": { "type": "Point", "coordinates": [ -75.664189702050621, 6.229120842229646 ] } },
{ "type": "Feature", "properties": { "sample_idx": 55, "sample_lat": 6.2506336385565406, "sample_lng": -75.627836062619451, "place_id": "ChIJaZZ-oIApRI4Rf6WSf41UQak", "hosp_name": 5, "hosp_addr": "Carrera 105b #34bb-30", "hosp_lat": 6.245976, "hosp_lng": -75.6197976, "dist_m": 2238, "dur_s": 568, "name": "Health Center Villa Laura", "address": "Carrera 105b #34bb-30", "lat": 6.245976, "lng": -75.6197976 }, "geometry": { "type": "Point", "coordinates": [ -75.627836062619451, 6.250633638556541 ] } },
{ "type": "Feature", "properties": { "sample_idx": 56, "sample_lat": 6.2342382105815961, "sample_lng": -75.502128526863913, "place_id": "ChIJY6NkV_goRI4RMlPFw9ilsNg", "hosp_name": 55, "hosp_addr": "Edifico Puerta Santa María, Carrera 47 #52-83 Interior 401", "hosp_lat": 6.2503231, "hosp_lng": -75.5653346, "dist_m": 20890, "dur_s": 2944, "name": "IPS Casa Plankton", "address": "Edifico Puerta Santa María, Carrera 47 #52-83 Interior 401", "lat": 6.2503231, "lng": -75.5653346 }, "geometry": { "type": "Point", "coordinates": [ -75.502128526863913, 6.234238210581596 ] } },
{ "type": "Feature", "properties": { "sample_idx": 57, "sample_lat": 6.2704215319103707, "sample_lng": -75.612803642132434, "place_id": "ChIJCf3ijm4pRI4RWc283IQNhIM", "hosp_name": 3, "hosp_addr": "Carrera 86 #49DD-115", "hosp_lat": 6.2626496, "hosp_lng": -75.6042411, "dist_m": 3057, "dur_s": 576, "name": "Health Center Santa Rosa De Lima", "address": "Carrera 86 #49DD-115", "lat": 6.2626496, "lng": -75.6042411 }, "geometry": { "type": "Point", "coordinates": [ -75.612803642132434, 6.270421531910371 ] } },
{ "type": "Feature", "properties": { "sample_idx": 58, "sample_lat": 6.1858990848383231, "sample_lng": -75.654251362562846, "place_id": "ChIJUUF_piyCRo4R8M4m8pHdwtE", "hosp_name": 12, "hosp_addr": "Calle 39 #49-37", "hosp_lat": 6.168067, "hosp_lng": -75.6157719, "dist_m": 5810, "dur_s": 929, "name": "Humanitas Eps", "address": "Calle 39 #49-37", "lat": 6.168067, "lng": -75.6157719 }, "geometry": { "type": "Point", "coordinates": [ -75.654251362562846, 6.185899084838323 ] } },
{ "type": "Feature", "properties": { "sample_idx": 59, "sample_lat": 6.2338584277134794, "sample_lng": -75.672097627494864, "place_id": "ChIJr12B4eMpRI4RO3OiLfffJus", "hosp_name": 53, "hosp_addr": "Calle 2b #100", "hosp_lat": 6.2122757, "hosp_lng": -75.6035406, "dist_m": 23457, "dur_s": 3712, "name": "Centro de Salud Belén Rincón", "address": "Calle 2b #100", "lat": 6.2122757, "lng": -75.6035406 }, "geometry": { "type": "Point", "coordinates": [ -75.672097627494864, 6.233858427713479 ] } },
{ "type": "Feature", "properties": { "sample_idx": 60, "sample_lat": 6.2846170625786426, "sample_lng": -75.702325269632198, "place_id": "ChIJ-7OH4OcrRI4R6hg1C5CDY_0", "hosp_name": 8, "hosp_addr": "Calle 55a #125a-5", "hosp_lat": 6.2721351, "hosp_lng": -75.6322563, "dist_m": 30795, "dur_s": 5289, "name": "Centro de Salud La Loma", "address": "Calle 55a #125a-5", "lat": 6.2721351, "lng": -75.6322563 }, "geometry": { "type": "Point", "coordinates": [ -75.702325269632198, 6.284617062578643 ] } },
{ "type": "Feature", "properties": { "sample_idx": 61, "sample_lat": 6.1976164480023348, "sample_lng": -75.50247497731938, "place_id": "ChIJPebK1vMoRI4R-mn4AoDQ4PM", "hosp_name": 0, "hosp_addr": "Carrera 20 #2 Sur 185", "hosp_lat": 6.1939507, "hosp_lng": -75.5574488, "dist_m": 24378, "dur_s": 2426, "name": "Clínica El Rosario", "address": "Carrera 20 #2 Sur 185", "lat": 6.1939507, "lng": -75.5574488 }, "geometry": { "type": "Point", "coordinates": [ -75.50247497731938, 6.197616448002335 ] } },
{ "type": "Feature", "properties": { "sample_idx": 62, "sample_lat": 6.2291337536609213, "sample_lng": -75.576054122732955, "place_id": "ChIJ8_JNCc8pRI4RQaIkgpb5wjc", "hosp_name": 50, "hosp_addr": "Calle 17 #60", "hosp_lat": 6.2207482, "hosp_lng": -75.5840562, "dist_m": 3067, "dur_s": 321, "name": "Dispositivos FLEX", "address": "Calle 17 #60", "lat": 6.2207482, "lng": -75.5840562 }, "geometry": { "type": "Point", "coordinates": [ -75.576054122732955, 6.229133753660921 ] } },
{ "type": "Feature", "properties": { "sample_idx": 63, "sample_lat": 6.220772235670565, "sample_lng": -75.627933404462908, "place_id": "ChIJtSQh7ecpRI4R6R__yB9SNKI", "hosp_name": 45, "hosp_addr": "Diagonal 75B #5-106", "hosp_lat": 6.2171486, "hosp_lng": -75.5984526, "dist_m": 4928, "dur_s": 815, "name": "Coomeva EPS", "address": "Diagonal 75B #5-106", "lat": 6.2171486, "lng": -75.5984526 }, "geometry": { "type": "Point", "coordinates": [ -75.627933404462908, 6.220772235670565 ] } },
{ "type": "Feature", "properties": { "sample_idx": 64, "sample_lat": 6.2776285581172377, "sample_lng": -75.584558682763259, "place_id": "ChIJCWJxCzspRI4R1n6t4qvLYYU", "hosp_name": 34, "hosp_addr": "Calle 75 #75-29", "hosp_lat": 6.2760841, "hosp_lng": -75.5880328, "dist_m": 434, "dur_s": 121, "name": "Robledo Metrosalud Health Center", "address": "Calle 75 #75-29", "lat": 6.2760841, "lng": -75.5880328 }, "geometry": { "type": "Point", "coordinates": [ -75.584558682763259, 6.277628558117238 ] } },
{ "type": "Feature", "properties": { "sample_idx": 65, "sample_lat": 6.1713416637884064, "sample_lng": -75.653578233910352, "place_id": "ChIJUUF_piyCRo4R8M4m8pHdwtE", "hosp_name": 12, "hosp_addr": "Calle 39 #49-37", "hosp_lat": 6.168067, "hosp_lng": -75.6157719, "dist_m": 5184, "dur_s": 808, "name": "Humanitas Eps", "address": "Calle 39 #49-37", "lat": 6.168067, "lng": -75.6157719 }, "geometry": { "type": "Point", "coordinates": [ -75.653578233910352, 6.171341663788406 ] } },
{ "type": "Feature", "properties": { "sample_idx": 66, "sample_lat": 6.2465158103261356, "sample_lng": -75.551205134252967, "place_id": "ChIJ99a72fooRI4Rp_xBuPado7I", "hosp_name": 52, "hosp_addr": "Calle 59 #50C-15", "hosp_lat": 6.2579004, "hosp_lng": -75.5653419, "dist_m": 2251, "dur_s": 472, "name": "Urgencias Clínica CES", "address": "Calle 59 #50C-15", "lat": 6.2579004, "lng": -75.5653419 }, "geometry": { "type": "Point", "coordinates": [ -75.551205134252967, 6.246515810326136 ] } },
{ "type": "Feature", "properties": { "sample_idx": 67, "sample_lat": 6.1976793928953731, "sample_lng": -75.645862773473937, "place_id": "ChIJUUF_piyCRo4R8M4m8pHdwtE", "hosp_name": 12, "hosp_addr": "Calle 39 #49-37", "hosp_lat": 6.168067, "hosp_lng": -75.6157719, "dist_m": 5822, "dur_s": 974, "name": "Humanitas Eps", "address": "Calle 39 #49-37", "lat": 6.168067, "lng": -75.6157719 }, "geometry": { "type": "Point", "coordinates": [ -75.645862773473937, 6.197679392895373 ] } },
{ "type": "Feature", "properties": { "sample_idx": 68, "sample_lat": 6.1729590002922388, "sample_lng": -75.65789427598358, "place_id": "ChIJUUF_piyCRo4R8M4m8pHdwtE", "hosp_name": 12, "hosp_addr": "Calle 39 #49-37", "hosp_lat": 6.168067, "hosp_lng": -75.6157719, "dist_m": 5364, "dur_s": 865, "name": "Humanitas Eps", "address": "Calle 39 #49-37", "lat": 6.168067, "lng": -75.6157719 }, "geometry": { "type": "Point", "coordinates": [ -75.65789427598358, 6.172959000292239 ] } },
{ "type": "Feature", "properties": { "sample_idx": 69, "sample_lat": 6.2878729111507292, "sample_lng": -75.691119900239727, "place_id": "ChIJ-7OH4OcrRI4R6hg1C5CDY_0", "hosp_name": 8, "hosp_addr": "Calle 55a #125a-5", "hosp_lat": 6.2721351, "hosp_lng": -75.6322563, "dist_m": 21367, "dur_s": 3751, "name": "Centro de Salud La Loma", "address": "Calle 55a #125a-5", "lat": 6.2721351, "lng": -75.6322563 }, "geometry": { "type": "Point", "coordinates": [ -75.691119900239727, 6.287872911150729 ] } },
{ "type": "Feature", "properties": { "sample_idx": 70, "sample_lat": 6.3720008847106833, "sample_lng": -75.702469620049811, "place_id": "ChIJ-7OH4OcrRI4R6hg1C5CDY_0", "hosp_name": 8, "hosp_addr": "Calle 55a #125a-5", "hosp_lat": 6.2721351, "hosp_lng": -75.6322563, "dist_m": 20924, "dur_s": 1780, "name": "Centro de Salud La Loma", "address": "Calle 55a #125a-5", "lat": 6.2721351, "lng": -75.6322563 }, "geometry": { "type": "Point", "coordinates": [ -75.702469620049811, 6.372000884710683 ] } },
{ "type": "Feature", "properties": { "sample_idx": 71, "sample_lat": 6.2007740887709426, "sample_lng": -75.537823157800702, "place_id": "ChIJPebK1vMoRI4R-mn4AoDQ4PM", "hosp_name": 0, "hosp_addr": "Carrera 20 #2 Sur 185", "hosp_lat": 6.1939507, "hosp_lng": -75.5574488, "dist_m": 8299, "dur_s": 1113, "name": "Clínica El Rosario", "address": "Carrera 20 #2 Sur 185", "lat": 6.1939507, "lng": -75.5574488 }, "geometry": { "type": "Point", "coordinates": [ -75.537823157800702, 6.200774088770943 ] } },
{ "type": "Feature", "properties": { "sample_idx": 72, "sample_lat": 6.2114872599620234, "sample_lng": -75.598241528619738, "place_id": "ChIJr12B4eMpRI4RO3OiLfffJus", "hosp_name": 53, "hosp_addr": "Calle 2b #100", "hosp_lat": 6.2122757, "hosp_lng": -75.6035406, "dist_m": 798, "dur_s": 165, "name": "Centro de Salud Belén Rincón", "address": "Calle 2b #100", "lat": 6.2122757, "lng": -75.6035406 }, "geometry": { "type": "Point", "coordinates": [ -75.598241528619738, 6.211487259962023 ] } },
{ "type": "Feature", "properties": { "sample_idx": 73, "sample_lat": 6.2567171974871982, "sample_lng": -75.56501422175873, "place_id": "ChIJ99a72fooRI4Rp_xBuPado7I", "hosp_name": 52, "hosp_addr": "Calle 59 #50C-15", "hosp_lat": 6.2579004, "hosp_lng": -75.5653419, "dist_m": 208, "dur_s": 82, "name": "Urgencias Clínica CES", "address": "Calle 59 #50C-15", "lat": 6.2579004, "lng": -75.5653419 }, "geometry": { "type": "Point", "coordinates": [ -75.56501422175873, 6.256717197487198 ] } },
{ "type": "Feature", "properties": { "sample_idx": 74, "sample_lat": 6.2891281545600517, "sample_lng": -75.697609164707799, "place_id": "ChIJ-7OH4OcrRI4R6hg1C5CDY_0", "hosp_name": 8, "hosp_addr": "Calle 55a #125a-5", "hosp_lat": 6.2721351, "hosp_lng": -75.6322563, "dist_m": 21367, "dur_s": 3751, "name": "Centro de Salud La Loma", "address": "Calle 55a #125a-5", "lat": 6.2721351, "lng": -75.6322563 }, "geometry": { "type": "Point", "coordinates": [ -75.697609164707799, 6.289128154560052 ] } },
{ "type": "Feature", "properties": { "sample_idx": 75, "sample_lat": 6.2729382112356094, "sample_lng": -75.643830739229657, "place_id": "ChIJ-7OH4OcrRI4R6hg1C5CDY_0", "hosp_name": 8, "hosp_addr": "Calle 55a #125a-5", "hosp_lat": 6.2721351, "hosp_lng": -75.6322563, "dist_m": 2309, "dur_s": 478, "name": "Centro de Salud La Loma", "address": "Calle 55a #125a-5", "lat": 6.2721351, "lng": -75.6322563 }, "geometry": { "type": "Point", "coordinates": [ -75.643830739229657, 6.272938211235609 ] } },
{ "type": "Feature", "properties": { "sample_idx": 76, "sample_lat": 6.2836594530975356, "sample_lng": -75.635945148984916, "place_id": "ChIJE9rpm1ApRI4R21vmmETfKEQ", "hosp_name": 24, "hosp_addr": "Robledo la Aurora, Carrera 102c #63 B 65", "hosp_lat": 6.2811828, "hosp_lng": -75.6128002, "dist_m": 3602, "dur_s": 671, "name": "Unidad Hospitalaria Nuevo Occidente", "address": "Robledo la Aurora, Carrera 102c #63 B 65", "lat": 6.2811828, "lng": -75.6128002 }, "geometry": { "type": "Point", "coordinates": [ -75.635945148984916, 6.283659453097536 ] } },
{ "type": "Feature", "properties": { "sample_idx": 77, "sample_lat": 6.2657888284655936, "sample_lng": -75.645387616881024, "place_id": "ChIJ-7OH4OcrRI4R6hg1C5CDY_0", "hosp_name": 8, "hosp_addr": "Calle 55a #125a-5", "hosp_lat": 6.2721351, "hosp_lng": -75.6322563, "dist_m": 1763, "dur_s": 551, "name": "Centro de Salud La Loma", "address": "Calle 55a #125a-5", "lat": 6.2721351, "lng": -75.6322563 }, "geometry": { "type": "Point", "coordinates": [ -75.645387616881024, 6.265788828465594 ] } },
{ "type": "Feature", "properties": { "sample_idx": 78, "sample_lat": 6.2286201960659406, "sample_lng": -75.553768527595793, "place_id": "ChIJEeAtcfgoRI4Rf9D--xJ9ARc", "hosp_name": 1, "hosp_addr": "Calle 51 #45-93", "hosp_lat": 6.2489096, "hosp_lng": -75.5644822, "dist_m": 4050, "dur_s": 1031, "name": "Soma Clinic", "address": "Calle 51 #45-93", "lat": 6.2489096, "lng": -75.5644822 }, "geometry": { "type": "Point", "coordinates": [ -75.553768527595793, 6.228620196065941 ] } },
{ "type": "Feature", "properties": { "sample_idx": 79, "sample_lat": 6.2513436097443122, "sample_lng": -75.58469316133251, "place_id": "ChIJL8PGSwgpRI4RAl2kIOaptUg", "hosp_name": 25, "hosp_addr": "Carrera 70 #44B-32", "hosp_lat": 6.2505101, "hosp_lng": -75.588276, "dist_m": 1016, "dur_s": 260, "name": "Coosalud Eps", "address": "Carrera 70 #44B-32", "lat": 6.2505101, "lng": -75.588276 }, "geometry": { "type": "Point", "coordinates": [ -75.58469316133251, 6.251343609744312 ] } },
{ "type": "Feature", "properties": { "sample_idx": 80, "sample_lat": 6.2633008168659217, "sample_lng": -75.516875459233162, "place_id": "ChIJ99a72fooRI4Rp_xBuPado7I", "hosp_name": 52, "hosp_addr": "Calle 59 #50C-15", "hosp_lat": 6.2579004, "hosp_lng": -75.5653419, "dist_m": 17081, "dur_s": 2599, "name": "Urgencias Clínica CES", "address": "Calle 59 #50C-15", "lat": 6.2579004, "lng": -75.5653419 }, "geometry": { "type": "Point", "coordinates": [ -75.516875459233162, 6.263300816865922 ] } },
{ "type": "Feature", "properties": { "sample_idx": 81, "sample_lat": 6.2568237622762739, "sample_lng": -75.53403159561482, "place_id": "ChIJ99a72fooRI4Rp_xBuPado7I", "hosp_name": 52, "hosp_addr": "Calle 59 #50C-15", "hosp_lat": 6.2579004, "hosp_lng": -75.5653419, "dist_m": 5982, "dur_s": 1443, "name": "Urgencias Clínica CES", "address": "Calle 59 #50C-15", "lat": 6.2579004, "lng": -75.5653419 }, "geometry": { "type": "Point", "coordinates": [ -75.53403159561482, 6.256823762276274 ] } },
{ "type": "Feature", "properties": { "sample_idx": 82, "sample_lat": 6.2888542212549554, "sample_lng": -75.680621951369361, "place_id": "ChIJ-7OH4OcrRI4R6hg1C5CDY_0", "hosp_name": 8, "hosp_addr": "Calle 55a #125a-5", "hosp_lat": 6.2721351, "hosp_lng": -75.6322563, "dist_m": 18628, "dur_s": 3168, "name": "Centro de Salud La Loma", "address": "Calle 55a #125a-5", "lat": 6.2721351, "lng": -75.6322563 }, "geometry": { "type": "Point", "coordinates": [ -75.680621951369361, 6.288854221254955 ] } },
{ "type": "Feature", "properties": { "sample_idx": 83, "sample_lat": 6.2421243157552873, "sample_lng": -75.679681019082679, "place_id": "ChIJuR6Y3popRI4RiDKnVRhOqxM", "hosp_name": 18, "hosp_addr": null, "hosp_lat": 6.2415056, "hosp_lng": -75.6080442, "dist_m": 12207, "dur_s": 2221, "name": "IPS ADVENTIST UNIVERSITY", "address": null, "lat": 6.2415056, "lng": -75.6080442 }, "geometry": { "type": "Point", "coordinates": [ -75.679681019082679, 6.242124315755287 ] } },
{ "type": "Feature", "properties": { "sample_idx": 84, "sample_lat": 6.2323173996420618, "sample_lng": -75.66678767225207, "place_id": "ChIJr12B4eMpRI4RO3OiLfffJus", "hosp_name": 53, "hosp_addr": "Calle 2b #100", "hosp_lat": 6.2122757, "hosp_lng": -75.6035406, "dist_m": 22207, "dur_s": 3480, "name": "Centro de Salud Belén Rincón", "address": "Calle 2b #100", "lat": 6.2122757, "lng": -75.6035406 }, "geometry": { "type": "Point", "coordinates": [ -75.66678767225207, 6.232317399642062 ] } },
{ "type": "Feature", "properties": { "sample_idx": 85, "sample_lat": 6.2687831073780016, "sample_lng": -75.664877954861595, "place_id": "ChIJ-7OH4OcrRI4R6hg1C5CDY_0", "hosp_name": 8, "hosp_addr": "Calle 55a #125a-5", "hosp_lat": 6.2721351, "hosp_lng": -75.6322563, "dist_m": 4837, "dur_s": 948, "name": "Centro de Salud La Loma", "address": "Calle 55a #125a-5", "lat": 6.2721351, "lng": -75.6322563 }, "geometry": { "type": "Point", "coordinates": [ -75.664877954861595, 6.268783107378002 ] } },
{ "type": "Feature", "properties": { "sample_idx": 86, "sample_lat": 6.1919562160962904, "sample_lng": -75.536261486624355, "place_id": "ChIJPebK1vMoRI4R-mn4AoDQ4PM", "hosp_name": 0, "hosp_addr": "Carrera 20 #2 Sur 185", "hosp_lat": 6.1939507, "hosp_lng": -75.5574488, "dist_m": 10255, "dur_s": 1384, "name": "Clínica El Rosario", "address": "Carrera 20 #2 Sur 185", "lat": 6.1939507, "lng": -75.5574488 }, "geometry": { "type": "Point", "coordinates": [ -75.536261486624355, 6.19195621609629 ] } },
{ "type": "Feature", "properties": { "sample_idx": 87, "sample_lat": 6.2310615846468203, "sample_lng": -75.686035903455732, "place_id": "ChIJr12B4eMpRI4RO3OiLfffJus", "hosp_name": 53, "hosp_addr": "Calle 2b #100", "hosp_lat": 6.2122757, "hosp_lng": -75.6035406, "dist_m": 35083, "dur_s": 5578, "name": "Centro de Salud Belén Rincón", "address": "Calle 2b #100", "lat": 6.2122757, "lng": -75.6035406 }, "geometry": { "type": "Point", "coordinates": [ -75.686035903455732, 6.23106158464682 ] } },
{ "type": "Feature", "properties": { "sample_idx": 88, "sample_lat": 6.2491200067095987, "sample_lng": -75.60287667709737, "place_id": "ChIJP_nSYp4pRI4RumyOTv74yRI", "hosp_name": 14, "hosp_addr": "Carrera 83 #37d-59", "hosp_lat": 6.2471564, "hosp_lng": -75.6026789, "dist_m": 282, "dur_s": 83, "name": "Cruz Blanca Eps", "address": "Carrera 83 #37d-59", "lat": 6.2471564, "lng": -75.6026789 }, "geometry": { "type": "Point", "coordinates": [ -75.60287667709737, 6.249120006709599 ] } },
{ "type": "Feature", "properties": { "sample_idx": 89, "sample_lat": 6.3129370184621241, "sample_lng": -75.691562755935976, "place_id": "ChIJ-7OH4OcrRI4R6hg1C5CDY_0", "hosp_name": 8, "hosp_addr": "Calle 55a #125a-5", "hosp_lat": 6.2721351, "hosp_lng": -75.6322563, "dist_m": 15481, "dur_s": 1597, "name": "Centro de Salud La Loma", "address": "Calle 55a #125a-5", "lat": 6.2721351, "lng": -75.6322563 }, "geometry": { "type": "Point", "coordinates": [ -75.691562755935976, 6.312937018462124 ] } },
{ "type": "Feature", "properties": { "sample_idx": 90, "sample_lat": 6.2974909805452404, "sample_lng": -75.666427701323585, "place_id": "ChIJ-7OH4OcrRI4R6hg1C5CDY_0", "hosp_name": 8, "hosp_addr": "Calle 55a #125a-5", "hosp_lat": 6.2721351, "hosp_lng": -75.6322563, "dist_m": 6046, "dur_s": 887, "name": "Centro de Salud La Loma", "address": "Calle 55a #125a-5", "lat": 6.2721351, "lng": -75.6322563 }, "geometry": { "type": "Point", "coordinates": [ -75.666427701323585, 6.29749098054524 ] } },
{ "type": "Feature", "properties": { "sample_idx": 91, "sample_lat": 6.2691063675905143, "sample_lng": -75.565759826897889, "place_id": "ChIJN-kyqecoRI4R7gabYshRvls", "hosp_name": 59, "hosp_addr": "Sede Clinica Leon XIII BLOQUE 3", "hosp_lat": 6.2669356, "hosp_lng": -75.5653968, "dist_m": 404, "dur_s": 126, "name": "León XIII Emergency Clinic", "address": "Sede Clinica Leon XIII BLOQUE 3", "lat": 6.2669356, "lng": -75.5653968 }, "geometry": { "type": "Point", "coordinates": [ -75.565759826897889, 6.269106367590514 ] } },
{ "type": "Feature", "properties": { "sample_idx": 92, "sample_lat": 6.296518489405055, "sample_lng": -75.590501259402103, "place_id": "ChIJO0hBCNEuRI4R9zic1a3FSpc", "hosp_name": 9, "hosp_addr": "Carrera 83b #97AA - 82", "hosp_lat": 6.2971808, "hosp_lng": -75.5828885, "dist_m": 2246, "dur_s": 679, "name": "Picachito Health Center", "address": "Carrera 83b #97AA - 82", "lat": 6.2971808, "lng": -75.5828885 }, "geometry": { "type": "Point", "coordinates": [ -75.590501259402103, 6.296518489405055 ] } },
{ "type": "Feature", "properties": { "sample_idx": 93, "sample_lat": 6.2170259539856989, "sample_lng": -75.658579081325996, "place_id": "ChIJtSQh7ecpRI4R6R__yB9SNKI", "hosp_name": 45, "hosp_addr": "Diagonal 75B #5-106", "hosp_lat": 6.2171486, "hosp_lng": -75.5984526, "dist_m": 9112, "dur_s": 1620, "name": "Coomeva EPS", "address": "Diagonal 75B #5-106", "lat": 6.2171486, "lng": -75.5984526 }, "geometry": { "type": "Point", "coordinates": [ -75.658579081325996, 6.217025953985699 ] } },
{ "type": "Feature", "properties": { "sample_idx": 94, "sample_lat": 6.2356020647519426, "sample_lng": -75.653353331866839, "place_id": "ChIJuR6Y3popRI4RiDKnVRhOqxM", "hosp_name": 18, "hosp_addr": null, "hosp_lat": 6.2415056, "hosp_lng": -75.6080442, "dist_m": 7559, "dur_s": 1473, "name": "IPS ADVENTIST UNIVERSITY", "address": null, "lat": 6.2415056, "lng": -75.6080442 }, "geometry": { "type": "Point", "coordinates": [ -75.653353331866839, 6.235602064751943 ] } },
{ "type": "Feature", "properties": { "sample_idx": 95, "sample_lat": 6.3160381619684909, "sample_lng": -75.705442999441459, "place_id": "ChIJ-7OH4OcrRI4R6hg1C5CDY_0", "hosp_name": 8, "hosp_addr": "Calle 55a #125a-5", "hosp_lat": 6.2721351, "hosp_lng": -75.6322563, "dist_m": 14589, "dur_s": 1524, "name": "Centro de Salud La Loma", "address": "Calle 55a #125a-5", "lat": 6.2721351, "lng": -75.6322563 }, "geometry": { "type": "Point", "coordinates": [ -75.705442999441459, 6.316038161968491 ] } },
{ "type": "Feature", "properties": { "sample_idx": 96, "sample_lat": 6.2476982037561726, "sample_lng": -75.677428257639008, "place_id": "ChIJuR6Y3popRI4RiDKnVRhOqxM", "hosp_name": 18, "hosp_addr": null, "hosp_lat": 6.2415056, "hosp_lng": -75.6080442, "dist_m": 12468, "dur_s": 2271, "name": "IPS ADVENTIST UNIVERSITY", "address": null, "lat": 6.2415056, "lng": -75.6080442 }, "geometry": { "type": "Point", "coordinates": [ -75.677428257639008, 6.247698203756173 ] } },
{ "type": "Feature", "properties": { "sample_idx": 97, "sample_lat": 6.2205703310730467, "sample_lng": -75.598550939992222, "place_id": "ChIJtSQh7ecpRI4R6R__yB9SNKI", "hosp_name": 45, "hosp_addr": "Diagonal 75B #5-106", "hosp_lat": 6.2171486, "hosp_lng": -75.5984526, "dist_m": 505, "dur_s": 118, "name": "Coomeva EPS", "address": "Diagonal 75B #5-106", "lat": 6.2171486, "lng": -75.5984526 }, "geometry": { "type": "Point", "coordinates": [ -75.598550939992222, 6.220570331073047 ] } },
{ "type": "Feature", "properties": { "sample_idx": 98, "sample_lat": 6.2663637320871173, "sample_lng": -75.643260789252253, "place_id": "ChIJ-7OH4OcrRI4R6hg1C5CDY_0", "hosp_name": 8, "hosp_addr": "Calle 55a #125a-5", "hosp_lat": 6.2721351, "hosp_lng": -75.6322563, "dist_m": 1749, "dur_s": 546, "name": "Centro de Salud La Loma", "address": "Calle 55a #125a-5", "lat": 6.2721351, "lng": -75.6322563 }, "geometry": { "type": "Point", "coordinates": [ -75.643260789252253, 6.266363732087117 ] } },
{ "type": "Feature", "properties": { "sample_idx": 99, "sample_lat": 6.2027028765714869, "sample_lng": -75.498206268736283, "place_id": "ChIJPebK1vMoRI4R-mn4AoDQ4PM", "hosp_name": 0, "hosp_addr": "Carrera 20 #2 Sur 185", "hosp_lat": 6.1939507, "hosp_lng": -75.5574488, "dist_m": 25246, "dur_s": 2569, "name": "Clínica El Rosario", "address": "Carrera 20 #2 Sur 185", "lat": 6.1939507, "lng": -75.5574488 }, "geometry": { "type": "Point", "coordinates": [ -75.498206268736283, 6.202702876571487 ] } }
]
}
